[
  {
    "Place_id": 1,
    "Place_name": "Portsmouth",
    "Postal_code": "00210",
    "Latitude": 43.0059,
    "Longitude": -71.0130,
    "County_id": 1787
  },
  {
    "Place_id": 2,
    "Place_name": "Portsmouth",
    "Postal_code": "00211",
    "Latitude": 43.0059,
    "Longitude": -71.0130,
    "County_id": 1787
  },
  {
    "Place_id": 3,
    "Place_name": "Portsmouth",
    "Postal_code": "00212",
    "Latitude": 43.0059,
    "Longitude": -71.0130,
    "County_id": 1787
  },
  {
    "Place_id": 4,
    "Place_name": "Portsmouth",
    "Postal_code": "00213",
    "Latitude": 43.0059,
    "Longitude": -71.0130,
    "County_id": 1787
  },
  {
    "Place_id": 5,
    "Place_name": "Portsmouth",
    "Postal_code": "00214",
    "Latitude": 43.0059,
    "Longitude": -71.0130,
    "County_id": 1787
  },
  {
    "Place_id": 6,
    "Place_name": "Portsmouth",
    "Postal_code": "00215",
    "Latitude": 43.0059,
    "Longitude": -71.0130,
    "County_id": 1787
  },
  {
    "Place_id": 7,
    "Place_name": "Pleasantville",
    "Postal_code": "00401",
    "Latitude": 41.1381,
    "Longitude": -73.7840,
    "County_id": 1852
  },
  {
    "Place_id": 8,
    "Place_name": "Holtsville",
    "Postal_code": "00501",
    "Latitude": 40.9223,
    "Longitude": -72.6370,
    "County_id": 1904
  },
  {
    "Place_id": 9,
    "Place_name": "Holtsville",
    "Postal_code": "00544",
    "Latitude": 40.9223,
    "Longitude": -72.6370,
    "County_id": 1904
  },
  {
    "Place_id": 10,
    "Place_name": "Agawam",
    "Postal_code": "01001",
    "Latitude": 42.0702,
    "Longitude": -72.6220,
    "County_id": 1213
  },
  {
    "Place_id": 11,
    "Place_name": "Amherst",
    "Postal_code": "01002",
    "Latitude": 42.3671,
    "Longitude": -72.4640,
    "County_id": 1214
  },
  {
    "Place_id": 12,
    "Place_name": "Amherst",
    "Postal_code": "01003",
    "Latitude": 42.3919,
    "Longitude": -72.5240,
    "County_id": 1214
  },
  {
    "Place_id": 13,
    "Place_name": "Amherst",
    "Postal_code": "01004",
    "Latitude": 42.3845,
    "Longitude": -72.5130,
    "County_id": 1214
  },
  {
    "Place_id": 14,
    "Place_name": "Barre",
    "Postal_code": "01005",
    "Latitude": 42.4097,
    "Longitude": -72.1080,
    "County_id": 1220
  },
  {
    "Place_id": 15,
    "Place_name": "Belchertown",
    "Postal_code": "01007",
    "Latitude": 42.2751,
    "Longitude": -72.4100,
    "County_id": 1214
  },
  {
    "Place_id": 16,
    "Place_name": "Blandford",
    "Postal_code": "01008",
    "Latitude": 42.1829,
    "Longitude": -72.9360,
    "County_id": 1213
  },
  {
    "Place_id": 17,
    "Place_name": "Bondsville",
    "Postal_code": "01009",
    "Latitude": 42.2061,
    "Longitude": -72.3400,
    "County_id": 1213
  },
  {
    "Place_id": 18,
    "Place_name": "Brimfield",
    "Postal_code": "01010",
    "Latitude": 42.1165,
    "Longitude": -72.1880,
    "County_id": 1213
  },
  {
    "Place_id": 19,
    "Place_name": "Chester",
    "Postal_code": "01011",
    "Latitude": 42.2794,
    "Longitude": -72.9880,
    "County_id": 1213
  },
  {
    "Place_id": 20,
    "Place_name": "Chesterfield",
    "Postal_code": "01012",
    "Latitude": 42.3923,
    "Longitude": -72.8250,
    "County_id": 1214
  }
]